Site Name,Site ID,Latitude,Longitude,Start Date,End Date,Number of Records,H Sine Function Amplitude,O Sine Function Amplitude,H Sine Function Phase,O Sine Function Phase,H Sine Function Offset,O Sine Function Offset,Precip & H Correlation,Precip & O Correlation,Biweekly Sampling H Mean,Biweekly Sampling O Mean,Biweekly Sampling H Std,Biweekly Sampling O Std,Daily Timeseries H Mean,Daily Timeseries O Mean,Daily Timeseries H Std,Daily Timeseries O Std,Corrected H Mean,Corrected O Mean,Corrected H Std,Corrected O Std
Dead Lake,DELA,32.54172,-87.80389,2019-01-15 17:35:00,2020-03-05 17:00:00,10,3.6853242286643897,0.7600413701748039,1.0725539103964983,1.248815877333274,-20.329116978050862,-4.221211296044294,0.35137395288604023,0.4221614900341837,-20.217299999999998,-4.1949,8.753589675670206,1.1216247545413753,-20.649841003353053,-4.296086801416609,8.812293743138591,1.1324806887714869,-21.093172991692533,-4.38818854462632,11.948830178390962,1.4762674653679226
Lenoir Landing,LENO,31.85388,-88.16122,2019-04-08 18:31:00,2020-01-30 16:45:00,11,4.481187220375829,0.678789624821733,3.1415926535897927,2.6367956676881197,-21.193834580256276,-4.273145045271573,-0.36152060156490207,-0.3871854901653832,-20.44527272727273,-4.1815454545454545,9.027188005644737,1.2737154215940905,-21.565836817011853,-4.3332046899995,8.915333453456597,1.2381725480295276,-18.746148632918867,-3.8863654312230334,10.530567181018961,1.4009129354895318
Talladega National Forest,TALL,32.95046,-87.39327,2019-01-18 18:45:00,2020-03-09 16:00:00,14,4.300582445497119,0.7808675540262914,2.524708129793195,2.0543072698322202,-21.987277391115708,-4.45175391682277,0.29993829810991585,0.29320231811084324,-22.390357142857145,-4.465285714285715,9.129812504780642,1.276612505733795,-22.555835856376934,-4.506329899199975,8.725832729478334,1.2434417825501054,-23.62481957022164,-4.672954292994042,10.885640139394916,1.583685531148128
Healy,HEAL,63.87569,-149.21334,2019-03-26 21:20:00,2019-12-06 00:56:00,7,29.370351092198614,2.6782534604363364,2.4698014688226366,2.4370810687257323,-138.0806346293195,-16.5803937899136,0.07374858369004439,0.05034830632344378,-125.41214285714288,-15.402000000000001,16.580761428565957,1.7043267627675491,-127.88212289910433,-15.627465416813319,20.244094452553796,1.9698867607933985,-122.32206907188295,-15.060953300517626,17.143122946900537,1.8817215867929902
Santa Rita Experimental Range,SRER,31.91068,-110.83549,2018-09-26 17:46:00,2020-03-09 18:38:00,24,23.51042317487532,3.7730812384586576,2.0455731757257656,1.8338505320414367,-45.03991945323755,-5.601409275318929,0.20998674171532666,0.20266341063862314,-48.36266666666666,-6.297625000000001,26.044807679373555,4.270691862494297,-33.294218927768206,-3.720280237879317,22.589755889478088,3.763569141136503,-32.89673515464062,-3.887459996377146,30.38949555152311,4.749948485645956
Sycamore Creek,SYCA,33.74906,-111.5069,2018-10-02 15:17:00,2020-03-17 17:35:00,15,34.37161152712111,4.851312308016667,1.5619321054245543,1.4413980473451904,-42.40946037850165,-5.672912138347603,-0.6336094071305016,-0.6945118505837109,-48.8078,-6.583733333333333,31.900040694226917,4.518031038209258,-50.276717462144106,-6.667597870338115,30.14147517357539,4.179454802648031,-50.39572490366959,-6.853023375775287,26.683975617559916,3.7920205655943255
Arikaree River,ARIK,39.75825,-102.4471,2018-09-13 19:00:00,2020-03-10 14:54:00,27,45.56116815835194,5.2352518427299355,1.7287212007085089,1.700768762449108,-80.26727498446313,-10.673735239516358,0.32430462637043844,0.3366629329968374,-86.25603703703703,-11.372740740740744,41.16160221702627,5.043500420178449,-91.31692257343528,-11.922250882356703,43.20174755616206,5.367701595226394,-89.03522193407422,-11.658059893570226,44.329609477489626,5.2659506777890295
Central Plains Experimental Range,CPER,40.81553,-104.7456,2018-10-02 17:08:00,2020-08-17 19:29:00,20,57.290683940261324,6.180374200029624,2.0891005554679203,2.051474747303068,-112.45863213634892,-13.776031821561785,0.30786232516603834,0.36833510865366914,-96.7087,-12.088849999999997,51.088187394054216,5.881577783851881,-125.43620788872404,-14.961415557347548,63.91005355009418,7.018885796206135,-98.62053025588627,-12.585630930997652,72.6818746020202,8.086662911785256
Niwot Ridge Mountain Research Station,NIWO,40.05425,-105.58237,2018-10-25 16:25:00,2020-08-25 16:38:00,25,62.61027139462252,7.12726311264699,2.3353179797779897,2.3562481658570045,-110.57925565491072,-14.190658823090466,0.1630389173872406,0.26367691259192655,-96.88168,-12.63456,47.38478618604921,5.563828639201606,-120.85288748780636,-15.168095752401651,55.02815592429656,6.426889785870443,-119.61329319851635,-15.451293776457248,57.339903293002656,7.003383424569126
"Rocky Mountain National Park, CASTNET",RMNP,40.27591,-105.54592,2018-09-18 17:00:00,2020-09-01 15:40:00,32,47.330743261152556,4.767985220515647,2.054092173106579,2.02282984409714,-108.6956062766219,-13.781584578395943,-0.05502099556876623,-0.07741793558367281,-107.52115625000003,-13.68728125,42.05312994007504,5.068609759061003,-95.1890563520615,-12.365906162441382,39.916738645726774,5.006380703305147,-88.68549990741104,-11.84769300844847,45.87596815500615,5.971752160085528
"North Sterling, CO",STER,40.4619,-103.0293,2018-09-12 18:30:00,2020-09-02 18:30:00,28,45.67761984571633,4.591852403794303,2.1518925042049046,2.2574513056783783,-82.20214068830337,-9.829691155706566,-0.11214110664640717,-0.014137064328075766,-67.10603571428571,-8.282642857142859,39.602117231894624,5.291527494929213,-70.66375464888333,-8.62913092035461,37.58039473463179,5.47791249908674,-57.71308466588198,-7.37641165678754,42.159561128029736,6.56500014138392
Ordway-Swisher Biological Station,OSBS,29.68927,-81.99343,2017-07-12 14:36:00,2020-07-01 12:46:00,36,1.1919783704586646,0.6054861219801964,1.963546482678632,0.8955557828806172,-14.993124331833176,-3.0576277667144236,-0.6495091589632216,-0.6763866401883116,-15.034388888888891,-3.132916666666667,13.100275400577944,1.8451907515815873,-14.58129892802706,-3.0113293297180843,12.259910542512914,1.6956914663104325,-13.669622347923626,-2.9804868950101433,16.804573680864348,2.178367709118271
Jones Ecological Research Center,JERC,31.19484,-84.46861,2018-09-18 14:00:00,2020-03-17 15:22:00,27,1.4364596661345974,0.23446061014051053,3.1415926535897927,3.1415926535897927,-17.527354800498717,-3.6715145259693407,-0.3005356927702747,-0.29437982960243186,-17.52874074074074,-3.671740740740741,13.056797635268007,1.7599054181781428,-18.25845033645544,-3.7279732076199994,12.780908673218644,1.7828658305348826,-16.55320014139496,-3.553107074390158,16.277413670421417,2.356128062968236
The University of Kansas Field Station,UKFS,39.04043,-95.19215,2018-11-28 16:45:00,2020-03-04 18:30:00,22,34.678345334414765,4.2268281364735,2.240951321109195,2.197618457285832,-43.99918072476452,-7.020500712176161,0.151760103250166,0.13661663236990532,-42.35940909090909,-6.851227272727272,34.43013602758635,4.068686195498248,-41.69928923957711,-6.788981662374392,35.035904685839384,4.108090420163589,-41.08086083470303,-6.649944015464384,32.90122391229009,3.7842779705058525
Smithsonian Environmental Research Center,SERC,38.89008,-76.56001,2019-04-17 16:47:00,2020-02-18 16:30:00,18,9.881819729187251,1.2152557891732811,1.7316084273764867,1.7942210180277418,-31.76420164249087,-5.497465493205225,-0.08997018680528165,-0.13841168936605416,-31.384777777777767,-5.442611111111111,14.386030676224904,1.9841119238952247,-32.925043175751,-5.64761405962378,14.177333954193545,2.0141012231596713,-39.1184174292302,-6.524795605019099,17.113888944837182,2.0586570552687715
Harvard Forest,HARV,42.5369,-72.17266,2018-09-24 15:28:00,2020-10-05 14:40:00,31,20.896603180039204,2.441221636838794,1.9391907275192803,1.9065171729483448,-50.089425326456926,-7.812251703463371,-0.25308237412764606,-0.22038164026816914,-47.29064516129032,-7.502999999999999,20.294118405139738,2.3754337464705193,-49.2051364746127,-7.725752041421485,19.126525189270414,2.2594839976742587,-51.957270115367386,-8.015197932447442,24.55053123216772,2.8838830505172535
UNDERC,UNDE,46.23388,-89.53725,2018-09-26 17:00:00,2020-10-01 15:57:00,40,46.36514893842458,5.076201307025509,1.9175980776062336,1.8573452397900674,-90.91935172508022,-12.004513442820638,0.331528697153329,0.26753911086324544,-86.26219999999998,-11.549700000000001,42.467824293928686,4.605959602514985,-84.32804130488975,-11.254706558014751,42.16851517780572,4.4687324734526825,-84.54183662163167,-11.4306433385111,41.20343497865924,4.716949770561573
Bartlett Experimental Forest,BART,44.06388,-71.28731,2018-10-01 18:13:00,2020-10-07 14:28:00,37,25.345284245734057,3.3370693358598524,1.9695359657386375,1.9560972860235748,-60.63730676744588,-9.125199690172387,-0.0719918595220328,-0.0998375213841654,-58.36113513513515,-8.832675675675677,29.790805569760142,3.7773756158823257,-59.15825320989986,-8.934803206550017,29.610381999522115,3.7515821793598474,-59.18085211206769,-8.890835558019495,39.35367074726717,4.835746825671494
Northern Great Plains Research Laboratory,NOGP,46.76972,-100.91535,2019-04-23 19:09:00,2020-10-13 17:19:00,19,44.67983942749452,4.876203151202515,2.053434682887198,2.0179541415344207,-105.12449715440673,-13.284925519320774,-0.24127348866103293,-0.23880424555160557,-88.62247368421053,-11.51663157894737,30.266412526044043,3.64721371966293,-93.6777800433554,-12.146106279089633,30.248127799670417,3.385493425248562,-83.9418930920946,-11.454673324424704,24.01184501766074,3.1106729703675446
Woodworth,WOOD,47.12823,-99.24136,2019-04-02 17:37:00,2020-09-29 18:11:00,14,59.52380074176606,7.371924573182219,2.1298540652650946,2.0411776638910952,-115.58275596551155,-15.341235650781819,-0.4807828114855397,-0.5159958897272785,-79.8845,-11.03057142857143,24.569541104936064,3.2565071278087796,-101.75994696039099,-13.55774829653197,38.74531117835009,4.779315427985353,-80.45126333168227,-11.199922251035229,21.334568583487005,2.6591651791750417
Blue River,BLUE,34.44422,-96.6242,2018-11-29 07:20:00,2020-03-09 17:55:00,25,22.83002662497488,3.0538304033595125,2.1533497820756393,2.039920935569731,-30.68668687532647,-5.41989538835323,0.09525390416466842,0.08502648435058122,-31.560480000000005,-5.555720000000001,24.896784701836502,3.359547916253019,-27.49650413276998,-4.9886318319181955,21.666236990404233,2.8538395481449936,-21.831087135350593,-4.2749786175897935,18.080917558707352,2.3543294435617295
Klemme Range Research Station,OAES,35.41059,-99.05879,2018-12-19 21:36:00,2020-03-09 20:16:00,21,17.072788359005937,2.3970736002460704,2.078759236191118,2.2349135981027777,-33.24045868806769,-5.327776031902794,0.0036923865269632705,-0.04011728286069724,-33.78233333333334,-5.365285714285714,20.60140874363261,2.836836788746648,-31.45828328560704,-5.16518555335128,20.997286461146686,2.923042030816119,-37.540862540262296,-6.171938709721348,26.35120779544227,3.291092038620426
Rio Cupeyes,CUPE,18.11352,-66.98676,2019-03-27 14:00:00,2020-07-14 15:20:00,24,6.531834811778632,1.1032754067230681,2.692960114758961,2.2036955150002338,-7.737281949319208,-2.3749362664309484,0.06503963979594922,0.020252976337230458,-6.542625000000002,-2.1284583333333336,23.28786764571576,2.9086141742985707,-5.935909775174317,-2.1803712043911303,21.69533953203051,2.671438150425919,-6.45866508539969,-2.2704671363366966,33.7367837435263,4.103357951719837
Guanica Forest,GUAN,17.96955,-66.8687,2019-05-02 13:20:00,2019-12-23 17:04:00,17,24.922887860355758,2.054568006424549,3.1415926535897927,3.1415926535897927,-25.425989644909773,-3.900942812356592,-0.23745200931399846,-0.26675412780738306,-15.508235294117643,-3.08335294117647,21.2745302444286,2.177846533273488,-18.34653533536407,-3.3917966557540336,24.85307435035419,2.4122740708074004,-9.341480545498229,-2.5686176624283825,23.71984896892689,2.5269517844575415
Rio Guilarte,GUIL,18.1741,-66.79851,2019-04-03 13:42:00,2020-09-03 12:27:00,24,4.812529455326614,0.3451709435165855,3.1415926535897927,3.1415926535897927,-16.074201056169382,-3.3080208128925683,-0.26283391017364,-0.3231369754088462,-14.558250000000001,-3.199291666666666,22.04045411708888,2.391008721564441,-14.130085820004062,-3.120456517586767,21.8576323654824,2.3554872893792704,-3.488798593732486,-2.0394179205462586,31.288243241768125,3.414606969253202
"Great Smoky Mountains National Park, Twin Creeks",GRSM,35.68896,-83.50195,2019-05-21 16:36:00,2020-07-15 16:30:00,20,22.185706938036823,2.565933837889789,1.7113196443231993,1.696215342163118,-37.60540803127896,-6.209896283487057,-0.2469478958260257,-0.2736075253167945,-37.32895,-6.184049999999999,26.190345947457434,3.1664382904929633,-39.010430782998014,-6.323709224863229,25.716623969726687,3.080918336544711,-38.86356680227224,-6.221967128224206,25.710731076341627,3.1666622180663806
Oak Ridge,ORNL,35.96412,-84.2826,2019-04-24 16:48:00,2020-07-30 12:18:00,18,17.784679150354545,2.5469939065412515,1.661689871915749,1.5793866577102398,-34.72882562654232,-5.961437883874533,-0.04539373430255872,-0.10235834873453581,-35.86411111111111,-6.16361111111111,21.393648852168173,2.7012616422472933,-34.904429322183454,-5.995271334703909,19.533556416484284,2.451262553398111,-30.368680907581385,-5.3243919852414265,21.631963026522218,2.8587997626836597
LBJ National Grassland ,CLBJ,33.40123,-97.57,2018-11-16 17:27:00,2020-02-13 16:49:00,23,25.23791671684915,3.5422225874590154,2.063232726273265,2.057461825718744,-26.35356184415696,-4.720482870847317,-0.25556074094503844,-0.2912054748586594,-25.99734782608695,-4.671086956521739,25.506150471582675,3.294446973621488,-28.22209055023229,-4.990704641803529,24.06840699545073,3.1086144557976887,-27.99128644971108,-4.972688278375083,29.300460333917215,3.74420839424868
Pringle Creek,PRIN,33.37859,-97.78226,2019-04-04 15:46:00,2020-03-03 15:51:00,20,24.74172214416708,3.6069720005357833,2.1801633873697264,2.077088423850886,-23.130276224877882,-4.095382700167538,-0.29558619491083904,-0.388203854043732,-21.993249999999996,-3.9722,22.050720636466735,3.22135778205402,-25.328121809834236,-4.305818233808199,22.527030832984867,3.322801911012617,-21.88742138259907,-3.876645859068519,25.976778628676477,3.8312345454597905
Moab,MOAB,38.24833,-109.38827,2018-11-19 19:24:00,2020-03-10 20:20:00,21,65.83996216901642,11.099209140023982,2.397473953856346,2.476169800089477,-72.84358849780803,-6.99101814996914,-0.3657229349887668,-0.48630177694051857,-79.94433333333333,-8.213142857142856,52.47600494133651,10.12146697576476,-75.22000487305061,-7.748219180388902,51.72407692759387,9.851389217001872,-88.59402596827563,-10.725575909189704,45.926036898666325,8.077750271603787
Onaqui,ONAQ,40.17759,-112.45244,2018-10-16 19:30:00,2020-10-13 16:45:00,26,47.23328103584933,6.9677593297895175,2.319418357600593,2.245064899187053,-85.06754533463412,-9.629572738119935,-0.10883459763858142,-0.21032941271679215,-84.28303846153845,-9.617076923076922,41.2872593586045,6.58972490334575,-85.01251936937156,-9.623796803329432,40.03150524002824,6.440950375988071,-94.20252167180507,-11.201969612970647,44.15453096902958,7.046374495641071
Red Butte Creek,REDB,40.78374,-111.79765,2018-10-18 18:30:00,2019-09-13 14:27:00,10,67.4110434496412,8.289438312394196,2.1381709134403875,2.119537111880964,-75.4056592199992,-10.301068262895468,0.38929126163121747,0.4628411579436198,-98.52619999999999,-13.1982,36.22750909129691,4.577903773562743,-74.65460859218813,-10.19910529212074,51.494689139285036,6.451301705868468,-115.12382122130037,-15.23062982922257,34.674717235898775,4.675031685925493
Blandy Experimental Farm,BLAN,39.06026,-78.07164,2019-04-23 16:01:00,2020-03-12 15:58:00,21,22.26790973770518,2.9487668840105585,1.858094041867953,1.855813049196893,-38.57262025264926,-6.238965754524182,-0.20837710416181587,-0.268607650362285,-37.86561904761904,-6.146571428571429,23.979645212586902,3.1300227075310274,-39.38076383315385,-6.364358480172334,22.75871737437573,3.0456420789488288,-30.288739492249245,-5.1406835380245095,26.303861749548346,3.55577344979142
Mountain Lake Biological Station,MLBS,37.37828,-80.52484,2019-05-14 21:05:00,2020-07-08 18:33:00,19,19.25373913429717,2.68992686987365,1.8749044593890671,1.810892878832486,-41.98286067090296,-7.162739599336323,-0.40275285085923906,-0.36873203380776864,-41.876105263157896,-7.186263157894736,23.657666919926466,2.9840606534350975,-42.438328467453594,-7.225012247434693,22.457139058263728,2.7913497003852568,-43.91438958542102,-7.498969071590041,29.12664183412597,3.5761828797193784
Smithsonian Conservation Biology Institute,SCBI,38.89292,-78.1395,2019-05-07 17:30:00,2020-03-12 16:00:00,19,20.674623817625452,2.6776725430497157,1.9383623513688018,1.8829127478069991,-39.858509634639084,-6.531135310866467,-0.0839065186643109,-0.14277471247568055,-40.054526315789474,-6.587315789473686,24.77787703273441,2.9982248441480306,-39.68001797368129,-6.5063636832286065,23.699328529302687,2.8979951483622868,-34.568057077673465,-5.7433504921799745,31.118898779308353,3.7436351638758563
Wind River Experimental Forest,WREF,45.82049,-121.95191,2018-09-28 17:30:00,2020-08-25 21:51:00,34,9.6309196378431,1.3523061810403971,3.0676962883256254,2.4359255540302804,-60.40133959058666,-8.232695882848649,-0.13833412104089227,-0.1561278408300666,-59.36876470588235,-8.254323529411764,19.954595826317693,2.7446664934076423,-61.30931954614565,-8.626079776396697,19.52931271200963,2.6356963163626643,-61.239043090977276,-8.678928229855863,26.29721768375911,3.5356940899611584
Steigerwaldt Land Services,STEI,45.50894,-89.58637,2018-10-02 19:10:00,2020-09-29 18:48:00,39,50.3697912458468,5.915463878543635,2.009852940903155,1.9390707164284424,-89.02603378688502,-12.210228835735935,0.10198293921854956,0.06108045021150421,-82.68843589743588,-11.53494871794872,42.97481477700265,5.130167878238354,-80.92133672359479,-11.234060206623438,42.69301825131209,5.0464298707225685,-69.34693329963828,-10.10330997036889,46.253892092984174,5.662666696796006
Yellowstone Northern Range (Frog Rock),YELL,44.95348,-110.53914,2019-07-10 16:56:00,2020-09-28 15:35:00,20,51.38133876318925,7.232564784985175,1.6774842500658604,1.6348925797613074,-107.39906211373092,-13.037720896042861,-0.1122738149715357,-0.15363446842087672,-113.32399999999998,-13.989349999999996,45.07862375893923,6.518434553441494,-99.02226243618834,-11.775482745276749,44.32190148001093,6.507882326825312,-73.99339394104149,-8.892638236453664,41.74806227288856,6.885682345789644
